[
{"id":1,"position":{"lng":-7.6575537,"lat":53.582516},"title":"ABBEYSHRULE"},
{"id":2,"position":{"lng":-6.540001,"lat":53.857624},"title":"Ardee"},
{"id":3,"position":{"lng":-6.681921,"lat":54.628017},"title":"Ardtrea"},
{"id":4,"position":{"lng":-6.652792,"lat":54.35028},"title":"Armagh"},
{"id":49,"position":{"lng":-8.889450,"lat":52.558397},"title":"Cappagh House"},
{"id":50,"position":{"lng":-8.826471,"lat":52.490264},"title":"Ballyknockane House"}, 
{"id":5,"position":{"lng":-8.40328,"lat":51.89396},"title":"BLACKROCK"},
{"id":6,"position":{"lng":-6.3759737,"lat":53.38421},"title":"Blanchardstown"},
{"id":7,"position":{"lng":-6.6648393,"lat":53.5594},"title":"Boyne valley"},
{"id":8,"position":{"lng":-6.102315,"lat":53.184956},"title":"Bray"},
{"id":9,"position":{"lng":-6.7397375,"lat":54.12066},"title":"CASTLEBLANEY"},
{"id":11,"position":{"lng":-8.498987,"lat":51.696407},"title":"Charles Fort"},
{"id":11,"position":{"lng":-8.855587,"lat":52.643770},"title":"Chapel Russell"},
{"id":13,"position":{"lng":-7.16452,"lat":54.4143},"title":"Clogher"},
{"id":14,"position":{"lng":-7.690255,"lat":52.355816},"title":"Clonmel"},
{"id":18,"position":{"lng":-6.3560987,"lat":53.717857},"title":"Drogheda"},
{"id":101,"position":{"lng":-7.816866,"lat":54.419522},"title":"Derrygonnelly"},
{"id":19,"position":{"lng":-6.572772,"lat":52.503113},"title":"ENNISCORTHY"},
{"id":20,"position":{"lng":-9.293495,"lat":52.940372},"title":"Ennistymon"},
{"id":23,"position":{"lng":-9.05679,"lat":53.270668},"title":"GALWAY town"},
{"id":24,"position":{"lng":-7.692054,"lat":53.14237},"title":"Gill Hall"},
{"id":25,"position":{"lng":-6.2342706,"lat":53.637306},"title":"Gormanstown Castle"},
{"id":26,"position":{"lng":-8.193318,"lat":54.577324},"title":"island of INISHINNY"},
{"id":27,"position":{"lng":-5.7,"lat":54.816666},"title":"Island Magee"},
{"id":49,"position":{"lng":-8.0072,"lat":52.5575},"title":"Grene Park"},
{"id":28,"position":{"lng":-9.504427,"lat":52.059937},"title":"Killarney"},
{"id":30,"position":{"lng":-6.133867,"lat":53.294395},"title":"Dun Laoghaire"},
{"id":31,"position":{"lng":-5.903977,"lat":54.810815},"title":"LARNE"},
{"id":32,"position":{"lng":-7.485639,"lat":54.832874},"title":"Lifford"},
{"id":34,"position":{"lng":-8.630498,"lat":52.668022},"title":"City of Limerick"},
{"id":35,"position":{"lng":-6.812039,"lat":53.01685},"title":"Rath of Mullaghmast"},
{"id":36,"position":{"lng":-7.1877575,"lat":53.16121},"title":"Portarlington"},
{"id":38,"position":{"lng":-6.2836304,"lat":53.298077},"title":"RATHFARNHAM CASTLE"},
{"id":39,"position":{"lng":-6.26916,"lat":53.318886},"title":"Rathgar"},
{"id":40,"position":{"lng":-6.2655053,"lat":53.32188},"title":"Rathmines"},
{"id":41,"position":{"lng":-7.4633102,"lat":54.827385},"title":"STRABANE"},
{"id":43,"position":{"lng":-8.493812,"lat":52.21585},"title":"WALLSTOWN CASTLE"},
{"id":48,"position":{"lng":-6.044589,"lat":52.98082},"title":"town of Wicklow"}
]