[
{"position":{"lng":"-7.6575535","lat":"53.5825139"},"title":"ABBEYSHRULE"},
{"position":{"lng":"-6.5400009","lat":"53.8576227"},"title":"Ardee"},
{"position":{"lng":"-6.681921","lat":"54.628017"},"title":"Ardtrea"},
{"position":{"lng":"-6.652792","lat":"54.3502798"},"title":"Armagh"},
{"position":{"lng":"-8.4032804","lat":"51.8939598"},"title":"near Cork BLACKROCK"},
{"position":{"lng":"-6.3759736","lat":"53.3842081"},"title":"Blanchardstown"},
{"position":{"lng":"-6.6648395","lat":"53.5594003"},"title":"Boyne valley"},
{"position":{"lng":"-6.1110741","lat":"53.200903"},"title":"Bray"},
{"position":{"lng":"-6.7397374","lat":"54.120659"},"title":"CASTLEBLANEY"},
{"position":{"lng":"-7.2996623","lat":"53.9765424"},"title":"Co. Cavan"},
{"position":{"lng":"-8.4989871","lat":"51.6964071"},"title":"Charles Fort"},
{"position":{"lng":"-8.9811351","lat":"52.904532"},"title":"Co. Clare"},
{"position":{"lng":"-7.16452","lat":"54.4143"},"title":"Div. of Clogher"},
{"position":{"lng":"-7.6902551","lat":"52.3558172"},"title":"Clonmel"},
{"position":{"lng":"-8.7285446","lat":"51.994206"},"title":"Co. Cork"},
{"position":{"lng":"-8.1040967","lat":"54.6548993"},"title":"Co. DONEGAL"},
{"position":{"lng":"-5.7157667","lat":"54.3276987"},"title":"Co. Down"},
{"position":{"lng":"-6.3560985","lat":"53.717856"},"title":"Drogheda"},
{"position":{"lng":"-6.5727721","lat":"52.5031135"},"title":"ENNISCORTHY"},
{"position":{"lng":"-9.2934951","lat":"52.940372"},"title":"Ennistymon"},
{"position":{"lng":"-7.6318728","lat":"54.343829"},"title":"Co. FERMANAGH"},
{"position":{"lng":"-9.0567905","lat":"53.270668"},"title":"Co. GALWAY"},
{"position":{"lng":"-9.0567905","lat":"53.270668"},"title":"town of GALWAY"},
{"position":{"lng":"-7.6920536","lat":"53.1423672"},"title":"Gill Hall"},
{"position":{"lng":"-6.2342708","lat":"53.637306"},"title":"Gormanstown Castle"},
{"position":{"lng":"-8.1933181","lat":"54.5773223"},"title":"island of INISHINNY"},
{"position":{"lng":"-5.7","lat":"54.8166667"},"title":"Island Magee"},
{"position":{"lng":"-9.5044265","lat":"52.0599353"},"title":"Killarney"},
{"position":{"lng":"-6.2913611","lat":"53.318791"},"title":"near Dublin Kimmage Road"},
{"position":{"lng":"-6.1338666","lat":"53.2943958"},"title":"Kingstown"},
{"position":{"lng":"-5.8236224","lat":"54.8578003"},"title":"LARNE"},
{"position":{"lng":"-7.4856389","lat":"54.8328751"},"title":"near town of Lifford"},
{"position":{"lng":"-8.739266","lat":"52.515811"},"title":"Co. Limerick"}, 
{"position":{"lng":"-8.6304975","lat":"52.6680204"},"title":"city of Limerick"},
{"position":{"lng":"-6.812039","lat":"53.01685"},"title":"Rath of Mullaghmast"},
{"position":{"lng":"-7.1877574","lat":"53.161211"},"title":"Portarlington"},
{"position":{"lng":"189","lat":"58"},"title":"Co. QUEEN'S"},
{"position":{"lng":"-6.2836302","lat":"53.2980764"},"title":"RATHFARNHAM CASTLE"},
{"position":{"lng":"-6.2691599","lat":"53.3188869"},"title":"Rathgar"},
{"position":{"lng":"-6.2655052","lat":"53.3218816"},"title":"Rathmines"},
{"position":{"lng":"-7.4633103","lat":"54.8273865"},"title":"STRABANE"},
{"position":{"lng":"-8.1618514","lat":"52.4737894"},"title":"Co. TIPPERARY"},
{"position":{"lng":"-8.4938116","lat":"52.2158525"},"title":"WALLSTOWN CASTLE"},
{"position":{"lng":"-7.1100703","lat":"52.2593197"},"title":"Co. Waterford"},
{"position":{"lng":"-7.4653217","lat":"53.5345308"},"title":"Co. Westmeath"},
{"position":{"lng":"-6.5839913","lat":"52.4793603"},"title":"Co. Wexford"},
{"position":{"lng":"-6.3672543","lat":"52.9862313"},"title":"Co. Wicklow"},
{"position":{"lng":"-6.044589","lat":"52.9808207"},"title":"town of Wicklow"}
]