[
{"id":10,"position":{"lng":-7.299662,"lat":53.976543},"title":"Co. Cavan"},
{"id":12,"position":{"lng":-8.981135,"lat":52.904533},"title":"Co. Clare"},
{"id":15,"position":{"lng":-8.728544,"lat":51.994205},"title":"Co. Cork"},
{"id":16,"position":{"lng":-8.104096,"lat":54.6549},"title":"Co. DONEGAL"},
{"id":17,"position":{"lng":-5.715767,"lat":54.327698},"title":"Co. Down"},
{"id":21,"position":{"lng":-7.6318727,"lat":54.34383},"title":"Co. FERMANAGH"},
{"id":22,"position":{"lng":-9.05679,"lat":53.270668},"title":"Co. GALWAY"},
{"id":33,"position":{"lng":-8.739266,"lat":52.515811},"title":"Co. Limerick"},
{"id":37,"position":{"lng":189.0,"lat":58.0},"title":"Co. QUEEN'S"},
{"id":42,"position":{"lng":-8.161851,"lat":52.47379},"title":"Co. TIPPERARY"},
{"id":44,"position":{"lng":-7.11007,"lat":52.25932},"title":"Co. Waterford"},
{"id":45,"position":{"lng":-7.4653215,"lat":53.53453},"title":"Co. Westmeath"},
{"id":46,"position":{"lng":-6.5839915,"lat":52.47936},"title":"Co. Wexford"},
{"id":47,"position":{"lng":-6.3672543,"lat":52.986233},"title":"County Wicklow"},
{"id":47,"position":{"lng":-9.145266,"lat":54.133163},"title":"Barony of Tirawley"}
]